City_ID,City,Country,Lat,Lng,Max Temp,Humidity,Cloudiness,Wind Speed,Current Description
0,Zheshart,RU,62.0731,49.5733,37.42,99,100,5.73,overcast clouds
1,Anshun,CN,26.25,105.9333,67.5,54,0,7.78,clear sky
2,Ushuaia,AR,-54.8,-68.3,37.06,87,75,19.57,light intensity drizzle
3,Tasiilaq,GL,65.6145,-37.6368,21.27,88,100,7.2,light snow
4,Socorro,US,31.6546,-106.3033,72.59,26,14,30.53,few clouds
5,Wuwei,CN,37.9281,102.6414,47.48,29,100,4.34,overcast clouds
6,Albany,US,42.6001,-73.9662,48.92,48,86,4.47,overcast clouds
7,Bambous Virieux,MU,-20.3428,57.7575,79.21,88,75,11.5,light rain
8,Chokurdakh,RU,70.6333,147.9167,6.75,85,100,2.39,overcast clouds
9,Noumea,NC,-22.2763,166.4572,85.98,74,15,7.27,few clouds
10,Mar Del Plata,AR,-38.0023,-57.5575,54.09,83,0,8.99,clear sky
11,Bubaque,GW,11.2833,-15.8333,74.14,75,99,7.4,overcast clouds
12,Atuona,PF,-9.8,-139.0333,79.54,79,19,17.67,few clouds
13,Hithadhoo,MV,-0.6,73.0833,83.68,70,6,11.16,clear sky
14,Airai,TL,-8.9266,125.4092,74.64,58,89,2.68,overcast clouds
15,Goundam,ML,16.4145,-3.6708,80.96,11,100,5.12,overcast clouds
16,Bredasdorp,ZA,-34.5322,20.0403,61.92,91,97,3.22,overcast clouds
17,Ponta Do Sol,PT,32.6667,-17.1,66.0,78,92,3.31,overcast clouds
18,Rikitea,PF,-23.1203,-134.9692,79.12,71,13,20.92,light rain
19,East London,ZA,-33.0153,27.9116,67.14,100,75,8.05,light rain
20,Punta Arenas,CL,-53.15,-70.9167,44.71,65,40,23.02,scattered clouds
21,Esperance,AU,-33.8667,121.9,71.44,77,36,15.32,scattered clouds
22,Tuktoyaktuk,CA,69.4541,-133.0374,21.2,68,75,12.66,broken clouds
23,Bethel,US,41.3712,-73.414,53.65,68,72,2.84,broken clouds
24,Yellowknife,CA,62.456,-114.3525,9.12,52,20,4.61,few clouds
25,Kapaa,US,22.0752,-159.319,77.18,83,76,4.0,broken clouds
26,Port Elizabeth,ZA,-33.918,25.5701,62.89,99,0,5.75,clear sky
27,Caravelas,BR,-17.7125,-39.2481,75.27,90,57,3.51,broken clouds
28,Anadyr,RU,64.75,177.4833,28.9,74,75,20.13,light snow
29,Clyde River,CA,70.4692,-68.5914,-5.57,77,0,10.36,clear sky
30,Utrecht,NL,52.0,5.25,55.98,85,100,1.01,overcast clouds
31,Newport,GB,51.5877,-2.9984,52.52,91,59,7.87,broken clouds
32,Constantine,DZ,36.365,6.6147,56.61,71,20,9.22,few clouds
33,Codrington,AU,-38.2667,141.9667,65.89,61,85,11.12,overcast clouds
34,Kiwira,TZ,-9.1667,33.5333,62.42,98,98,2.62,overcast clouds
35,Grand Gaube,MU,-20.0064,57.6608,79.38,81,22,8.99,few clouds
36,Victoria,HK,22.2855,114.1577,83.17,78,8,10.0,clear sky
37,Hofn,IS,64.2539,-15.2082,36.03,83,86,16.67,overcast clouds
38,Vanavara,RU,60.34,102.2797,34.0,54,86,9.44,overcast clouds
39,Port Alfred,ZA,-33.5906,26.891,63.18,96,89,6.11,overcast clouds
40,Tucuman,AR,-26.8241,-65.2226,66.2,94,100,4.61,mist
41,Les Cayes,HT,18.2,-73.75,75.92,82,16,3.0,few clouds
42,Yakeshi,CN,49.2833,120.7333,41.2,26,47,6.4,scattered clouds
43,Narsaq,GL,60.9167,-46.05,34.21,59,100,4.97,overcast clouds
44,Komsomolskiy,UZ,40.4272,71.7189,72.32,37,22,2.3,few clouds
45,Pemangkat,ID,1.1667,108.9667,85.1,69,89,6.2,overcast clouds
46,Ribeira Grande,PT,38.5167,-28.7,62.22,82,100,27.27,overcast clouds
47,Qaanaaq,GL,77.484,-69.3632,-1.73,100,100,0.89,overcast clouds
48,Tongliao,CN,43.6125,122.2653,54.63,20,86,6.89,overcast clouds
49,Luderitz,,-26.6481,15.1594,60.71,79,1,6.53,clear sky
50,Palencia,ES,42.4167,-4.5,38.79,88,19,3.0,few clouds
51,Katsuura,JP,35.1333,140.3,69.21,84,100,13.15,overcast clouds
52,Adrar,MR,20.5022,-10.0711,73.31,18,91,11.92,overcast clouds
53,Nemuro,JP,43.3236,145.575,35.91,87,100,11.59,overcast clouds
54,Mataura,NZ,-46.1927,168.8643,57.47,51,28,2.8,scattered clouds
55,Roald,NO,62.5833,6.1333,42.75,81,100,3.44,overcast clouds
56,Shelburne,CA,44.0787,-80.2041,50.79,52,100,5.86,overcast clouds
57,Lasa,IT,46.6166,10.7002,45.48,79,98,1.79,overcast clouds
58,Ekhabi,RU,53.5102,142.9671,29.14,65,100,10.36,overcast clouds
59,Muros,ES,42.7762,-9.0603,54.84,93,67,7.54,broken clouds
60,Hasaki,JP,35.7333,140.8333,84.29,76,100,15.41,overcast clouds
61,Dikson,RU,73.5069,80.5464,26.29,95,100,9.98,light snow
62,Hearst,CA,49.6835,-83.6665,32.25,96,100,1.9,overcast clouds
63,Kodiak,US,57.79,-152.4072,40.51,65,75,11.5,broken clouds
64,Coquimbo,CL,-29.9533,-71.3436,55.13,87,0,0.0,clear sky
65,Fortuna,US,40.5982,-124.1573,44.92,86,100,1.01,overcast clouds
66,Torbat-E Jam,IR,35.244,60.6225,73.04,17,0,2.13,clear sky
67,Sume,BR,-7.6717,-36.88,68.56,94,34,4.32,scattered clouds
68,Zhuhai,CN,22.2769,113.5678,84.85,88,40,9.22,scattered clouds
69,Saldanha,ZA,-33.0117,17.9442,60.85,91,79,11.05,broken clouds
70,Malkangiri,IN,18.35,81.9,93.25,39,71,3.6,broken clouds
71,Bluff,NZ,-46.6,168.3333,57.79,59,28,9.28,scattered clouds
72,Hilo,US,19.7297,-155.09,74.25,90,100,8.05,moderate rain
73,Cape Town,ZA,-33.9258,18.4232,62.91,95,100,8.99,fog
74,Jamestown,US,42.097,-79.2353,53.24,49,0,4.61,clear sky
75,Hobart,AU,-42.8794,147.3294,71.02,48,20,11.5,few clouds
76,Comodoro Rivadavia,AR,-45.8667,-67.5,55.26,50,0,24.16,clear sky
77,Busselton,AU,-33.65,115.3333,71.91,39,0,8.14,clear sky
78,Marshall,US,34.3834,-86.3333,71.31,62,0,4.61,clear sky
79,Cherskiy,RU,68.75,161.3,11.05,77,100,4.65,overcast clouds
80,Kaitangata,NZ,-46.2817,169.8464,57.4,52,30,3.04,scattered clouds
81,Port Lincoln,AU,-34.7333,135.8667,68.95,61,80,13.76,broken clouds
82,Tocopilla,CL,-22.092,-70.1979,63.3,73,7,6.38,clear sky
83,Kloulklubed,PW,7.0419,134.2556,84.7,80,82,19.13,broken clouds
84,Sao Filipe,CV,14.8961,-24.4956,70.2,76,100,10.27,overcast clouds
85,Namibe,AO,-15.1961,12.1522,75.42,79,1,4.29,clear sky
86,Nanortalik,GL,60.1432,-45.2371,32.11,78,100,3.96,overcast clouds
87,Pavlovka,RU,52.6897,47.1405,49.05,85,100,11.83,overcast clouds
88,Atambua,ID,-9.1061,124.8925,82.89,63,91,3.09,overcast clouds
89,Kapit,MY,2.0167,112.9333,91.31,53,85,2.75,overcast clouds
90,Babu,CN,24.4167,111.5167,68.79,85,99,10.33,overcast clouds
91,Puerto Ayora,EC,-0.7393,-90.3518,76.62,90,94,5.68,overcast clouds
92,Policoro,IT,40.2115,16.6726,39.97,82,96,3.85,overcast clouds
93,Petropavlovsk-Kamchatskiy,RU,53.0452,158.6483,39.79,45,0,8.95,clear sky
94,Carnarvon,AU,-24.8667,113.6333,80.67,36,0,17.27,clear sky
95,Deputatskiy,RU,69.3,139.9,6.64,86,100,3.76,overcast clouds
96,Havoysund,NO,70.9963,24.6622,30.43,70,98,10.51,light snow
97,Zlobin,HR,45.2924,14.6541,37.17,93,0,2.3,clear sky
98,Ulagan,RU,50.6321,87.9563,38.19,68,79,2.01,broken clouds
99,Synya,RU,65.3718,58.0387,33.84,100,100,2.46,snow
100,Georgetown,MY,5.4112,100.3354,89.55,70,20,3.44,few clouds
101,Vaini,TO,-21.2,-175.2,84.36,74,20,6.91,few clouds
102,Lompoc,US,34.6391,-120.4579,49.59,69,0,8.99,clear sky
103,Cidreira,BR,-30.1811,-50.2056,70.07,91,53,6.73,broken clouds
104,Fort Nelson,CA,58.8053,-122.7002,18.99,38,20,3.44,few clouds
105,Gat,IL,31.61,34.7642,56.08,74,7,0.56,clear sky
106,Upernavik,GL,72.7868,-56.1549,3.96,97,100,9.53,overcast clouds
107,Hermanus,ZA,-34.4187,19.2345,56.8,91,77,1.81,broken clouds
108,Jackson,US,42.4165,-122.8345,38.79,89,77,3.42,broken clouds
109,Urucui,BR,-7.2294,-44.5561,74.46,90,27,2.08,scattered clouds
110,Saint-Lo,FR,49.1162,-1.0903,43.23,93,52,3.4,broken clouds
111,Peleduy,RU,59.6289,112.7406,35.22,64,89,5.73,overcast clouds
112,Sola,VU,-13.8833,167.55,90.27,66,40,2.3,scattered clouds
113,New Norfolk,AU,-42.7826,147.0587,70.66,42,12,5.01,few clouds
114,Sindou,BF,10.6667,-5.1667,81.14,54,60,3.76,broken clouds
115,Mikhaylovka,RU,50.06,43.2379,52.79,83,100,15.52,light rain
116,Los Llanos De Aridane,ES,28.6585,-17.9182,58.75,88,40,8.05,scattered clouds
117,Zhezkazgan,KZ,47.8043,67.7144,51.78,71,0,6.71,clear sky
118,Ormara,PK,25.2088,64.6357,80.33,77,0,7.0,clear sky
119,Leshan,CN,29.5623,103.7639,75.04,63,100,3.49,overcast clouds
120,Broome,US,42.2506,-75.833,48.65,63,95,1.99,overcast clouds
121,Cabo San Lucas,MX,22.8909,-109.9124,70.61,79,56,13.11,broken clouds
122,Carutapera,BR,-1.195,-46.02,76.24,92,97,4.76,overcast clouds
123,Wagar,SD,16.1525,36.2032,85.23,35,6,7.16,clear sky
124,Lorengau,PG,-2.0226,147.2712,84.94,69,6,7.43,clear sky
125,Kitimat,CA,54.0524,-128.6534,35.98,39,35,8.5,scattered clouds
126,San Patricio,US,28.017,-97.5169,76.89,89,17,17.27,few clouds
127,Butaritari,KI,3.0707,172.7902,82.04,76,58,14.88,broken clouds
128,Yar-Sale,RU,66.8333,70.8333,34.45,100,100,8.57,overcast clouds
129,Ostrovnoy,RU,68.0531,39.5131,17.47,91,76,6.64,broken clouds
130,Avarua,CK,-21.2078,-159.775,78.85,83,100,8.05,overcast clouds
131,Prince George,CA,53.9166,-122.753,22.44,41,0,14.97,clear sky
132,Berlevag,NO,70.8578,29.0864,30.2,82,98,12.15,overcast clouds
133,Serenje,ZM,-13.2325,30.2352,58.64,98,8,4.61,clear sky
134,Hambantota,LK,6.1241,81.1185,79.14,100,40,2.3,scattered clouds
135,Saint-Philippe,RE,-21.3585,55.7679,78.39,85,98,15.37,light rain
136,Pevek,RU,69.7008,170.3133,3.06,76,100,2.08,overcast clouds
137,Nouakchott,MR,18.0858,-15.9785,66.13,82,100,15.68,overcast clouds
138,Kavieng,PG,-2.5744,150.7967,83.91,74,22,10.54,light rain
139,Nantucket,US,41.2835,-70.0995,49.14,86,33,9.22,scattered clouds
140,Iqaluit,CA,63.7506,-68.5145,11.93,79,100,21.85,light snow
141,Tiksi,RU,71.6872,128.8694,-1.01,91,99,3.31,overcast clouds
142,George,ZA,-33.963,22.4617,58.55,94,100,4.61,fog
143,La Ronge,CA,55.1001,-105.2842,17.85,57,100,13.8,overcast clouds
144,Divnomorskoye,RU,44.5011,38.1353,46.29,76,100,14.99,overcast clouds
145,Opuwo,,-18.0607,13.84,64.27,77,78,3.89,broken clouds
146,Provideniya,RU,64.3833,-173.3,24.91,80,100,25.01,light snow
147,Itoman,JP,26.1247,127.6694,78.82,73,40,13.8,scattered clouds
148,Vostok,RU,46.4856,135.8833,36.09,68,100,7.18,overcast clouds
149,Taltal,CL,-25.4,-70.4833,60.48,81,1,1.79,clear sky
150,Xianyang,CN,34.3378,108.7026,63.64,59,20,4.47,few clouds
151,Gidole,ET,5.65,37.3667,59.23,70,48,0.54,light rain
152,Bayan,CN,46.0833,127.4,52.18,19,71,2.77,broken clouds
153,Kerema,PG,-7.9631,145.7785,86.14,71,98,10.36,overcast clouds
154,Novobirilyussy,RU,56.9514,90.6661,33.85,69,74,4.41,broken clouds
155,Longyearbyen,SJ,78.2186,15.6401,17.44,86,75,3.44,light snow
156,Hobyo,SO,5.3505,48.5268,82.62,70,6,7.47,clear sky
157,Krasnoselkup,RU,65.7,82.4667,32.95,100,99,13.31,overcast clouds
158,Thompson,CA,55.7435,-97.8558,24.96,93,100,6.91,overcast clouds
159,La Tuque,CA,47.4334,-72.7824,34.05,69,63,1.14,broken clouds
160,Nampula,MZ,-15.1165,39.2666,71.55,94,20,2.3,few clouds
161,Bluefield,US,37.2698,-81.2223,60.4,91,93,3.31,overcast clouds
162,Maceio,BR,-9.6658,-35.7353,74.64,88,0,3.44,clear sky
163,Canete,CL,-37.8,-73.4,44.64,79,1,4.92,clear sky
164,Luena,AO,-11.7833,19.9167,59.9,97,42,4.27,scattered clouds
165,Miraflores,MX,19.2167,-98.8083,70.03,58,78,4.29,broken clouds
166,Barrow,US,71.2906,-156.7887,-6.74,93,21,5.37,few clouds
167,Smithers,CA,54.7804,-127.1743,26.92,31,20,11.5,few clouds
168,Pangnirtung,CA,66.1451,-65.7125,2.46,98,100,5.23,overcast clouds
169,Pacifica,US,37.6138,-122.4869,49.78,76,0,14.0,clear sky
170,Lengshuijiang,CN,27.6881,111.4294,59.11,85,100,7.34,overcast clouds
171,Mahebourg,MU,-20.4081,57.7,80.26,88,75,11.5,broken clouds
172,Port-Gentil,GA,-0.7193,8.7815,79.83,84,100,7.65,light rain
173,Pundaguitan,PH,6.3711,126.1689,84.04,67,100,7.96,overcast clouds
174,Calabozo,VE,8.9242,-67.4293,83.37,55,39,11.79,scattered clouds
175,Khatanga,RU,71.9667,102.5,13.75,82,100,12.17,overcast clouds
176,Brest,BY,52.1,23.7,35.31,76,1,4.12,clear sky
177,Nikolskoye,RU,59.7035,30.7861,35.87,86,8,3.15,clear sky
178,Souillac,MU,-20.5167,57.5167,77.68,81,72,18.61,light rain
179,Pathein,MM,16.7833,94.7333,93.7,41,1,12.73,clear sky
180,Galle,LK,6.0367,80.217,84.06,73,97,3.6,moderate rain
181,Nizwa,OM,22.9333,57.5333,90.14,11,0,2.17,clear sky
182,Mayo,US,38.8876,-76.5119,66.16,77,75,0.0,broken clouds
183,Saint George,US,37.1041,-113.5841,48.94,14,0,10.36,clear sky
184,Saint-Augustin,CA,51.226,-58.6502,27.43,91,90,5.79,overcast clouds
185,Bossangoa,CF,6.4926,17.4552,72.12,85,82,3.24,light rain
186,Sakti,IN,22.0333,82.9667,99.28,19,85,8.81,overcast clouds
187,Caconda,AO,-13.7333,15.0667,56.5,96,65,3.27,broken clouds
188,Uribia,CO,11.7139,-72.266,79.34,73,84,21.79,broken clouds
189,Orlik,RU,52.5178,99.825,16.47,67,100,1.86,overcast clouds
190,Segezha,RU,63.7415,34.3222,27.37,98,78,3.0,broken clouds
191,Talaya,RU,61.3833,152.75,11.61,77,97,7.72,overcast clouds
192,Geraldton,AU,-28.7667,114.6,73.81,43,0,16.11,clear sky
193,Tabou,CI,4.423,-7.3528,78.24,90,89,7.83,light rain
194,Kalaleh,IR,37.3807,55.4916,69.03,44,73,15.84,broken clouds
195,Cockburn Town,TC,21.4612,-71.1419,77.22,77,94,25.68,overcast clouds
196,Naze,JP,28.3667,129.4833,70.09,87,37,10.09,scattered clouds
197,Wanning,CN,18.8003,110.3967,85.03,64,5,6.73,clear sky
198,Conceicao Do Araguaia,BR,-8.2578,-49.2647,73.26,95,78,4.43,broken clouds
199,Lindas,NO,60.7381,5.16,39.78,78,100,6.24,overcast clouds
200,Mount Gambier,AU,-37.8333,140.7667,70.45,42,6,4.14,clear sky
201,Redmond,US,47.674,-122.1215,41.05,80,100,8.01,overcast clouds
202,Makakilo City,US,21.3469,-158.0858,75.69,69,69,13.02,broken clouds
203,Sinnamary,GF,5.3833,-52.95,77.47,87,89,10.4,overcast clouds
204,Guerrero Negro,MX,27.9769,-114.0611,58.3,65,1,20.11,clear sky
205,Namatanai,PG,-3.6667,152.4333,85.62,65,52,8.93,broken clouds
206,Palmer,US,42.1584,-72.3287,51.93,69,79,2.15,broken clouds
207,Alepe,CI,5.5004,-3.6631,76.87,91,100,2.62,overcast clouds
208,Arman,RU,59.7,150.1667,32.02,53,83,6.04,broken clouds
209,Mayumba,GA,-3.432,10.6554,76.44,91,97,4.88,light rain
210,Lavrentiya,RU,65.5833,-171.0,17.71,87,95,10.49,overcast clouds
211,Saskylakh,RU,71.9167,114.0833,1.47,93,71,9.13,broken clouds
212,Ancud,CL,-41.8697,-73.8203,50.23,84,100,1.14,overcast clouds
213,Marsh Harbour,BS,26.5412,-77.0636,73.9,63,38,17.81,scattered clouds
214,Nurota,UZ,40.5614,65.6886,70.84,42,0,1.72,clear sky
215,Flin Flon,CA,54.7682,-101.865,14.88,87,47,9.04,scattered clouds
216,Magaria,NE,12.9983,8.9099,77.59,62,30,9.42,scattered clouds
217,Matiri,TZ,-10.75,34.9,59.99,96,97,4.03,overcast clouds
218,Alofi,NU,-19.0595,-169.9187,81.9,72,98,5.44,light rain
219,Wieliczka,PL,49.9874,20.0647,36.09,78,7,3.44,clear sky
220,Cayenne,GF,4.9333,-52.3333,81.09,1,100,10.36,overcast clouds
221,Porto Velho,BR,-8.7619,-63.9039,77.05,94,75,2.3,broken clouds
222,Zhigansk,RU,66.7697,123.3711,11.21,75,100,4.12,overcast clouds
223,Riverton,US,40.5219,-111.9391,33.04,74,0,8.05,clear sky
224,Sinop,TR,41.7711,34.8709,35.56,66,100,7.18,light rain
225,Terek,RU,43.4833,44.1361,42.08,77,100,3.51,overcast clouds
226,Vanimo,PG,-2.6741,141.3028,86.43,65,69,8.25,broken clouds
227,Ilulissat,GL,69.2167,-51.1,15.82,79,95,8.05,overcast clouds
228,Horta,PT,38.5333,-28.6333,61.29,83,100,25.23,overcast clouds
229,Huarmey,PE,-10.0681,-78.1522,67.26,86,67,8.79,broken clouds
230,Touros,BR,-5.1989,-35.4608,77.29,79,53,6.87,broken clouds
231,La Asuncion,VE,11.0333,-63.8628,76.95,85,17,17.96,few clouds
232,Ponazyrevo,RU,58.3578,46.3142,43.57,90,100,4.14,overcast clouds
233,Waipawa,NZ,-41.4122,175.5153,54.34,73,100,18.68,overcast clouds
234,Dahanu,IN,19.9667,72.7333,88.05,44,52,4.03,broken clouds
235,Nicoya,CR,10.1483,-85.452,79.14,68,73,7.47,broken clouds
236,Samarai,PG,-10.6167,150.6667,84.74,72,89,11.07,overcast clouds
237,Andenes,NO,69.3143,16.1194,34.93,93,75,12.66,broken clouds
238,Mount Isa,AU,-20.7333,139.5,94.77,21,100,10.36,overcast clouds
239,Syracuse,IT,37.0881,15.2792,46.31,76,100,4.03,overcast clouds
240,San Lorenzo,PY,-25.3333,-57.5333,70.74,88,0,4.61,clear sky
241,Port Augusta,AU,-32.5,137.7667,89.71,22,14,6.15,few clouds
242,Ghanzi,BW,-21.5667,21.7833,67.5,54,92,6.38,overcast clouds
243,Vila Do Maio,CV,15.1333,-23.2167,68.79,80,100,15.99,overcast clouds
244,Jamalpur,BD,24.9167,89.9333,88.65,60,17,8.81,few clouds
245,Matara,LK,5.9485,80.5353,82.71,80,100,3.74,light rain
246,Yaan,NG,7.3833,8.5667,74.91,86,98,2.37,overcast clouds
247,Ariquemes,BR,-9.9133,-63.0408,73.67,96,97,1.83,overcast clouds
248,Masunga,BW,-20.6246,27.4488,66.31,62,70,5.57,broken clouds
249,Acarau,BR,-2.8856,-40.12,77.67,87,69,7.36,broken clouds
250,Corpus Christi,US,27.8006,-97.3964,77.02,87,100,18.41,overcast clouds
251,Coahuayana,MX,18.7333,-103.6833,72.9,85,78,1.57,broken clouds
252,Tuatapere,NZ,-46.1333,167.6833,56.12,60,23,3.74,few clouds
253,Polyanka,UA,50.2584,27.6881,37.49,66,57,14.99,broken clouds
254,Te Anau,NZ,-45.4167,167.7167,56.86,54,1,1.16,clear sky
255,Hovd,MN,48.0056,91.6419,39.25,38,9,12.17,clear sky
256,Rocha,UY,-34.4833,-54.3333,53.56,67,3,4.41,clear sky
257,Bichena,ET,10.45,38.2,59.23,56,99,0.38,overcast clouds
258,Brae,GB,60.3964,-1.353,43.52,93,100,15.03,overcast clouds
259,Praia Da Vitoria,PT,38.7333,-27.0667,61.75,92,100,22.75,overcast clouds
260,Kyzyl-Suu,KG,42.3414,78.0056,55.63,55,69,4.03,broken clouds
261,Aljezur,PT,37.3191,-8.8033,54.09,90,61,10.45,broken clouds
262,Zhangye,CN,38.9342,100.4517,52.41,18,100,5.08,overcast clouds
263,Charters Towers,AU,-20.1,146.2667,88.68,28,41,12.5,scattered clouds
264,Wau,SS,7.7029,27.9953,78.28,59,24,4.0,few clouds
265,Norton,ZW,-17.8833,30.7,61.29,98,31,3.65,scattered clouds
266,Texarkana,US,33.4251,-94.0477,66.42,88,100,15.01,thunderstorm with rain
267,Henties Bay,,-22.116,14.2845,62.24,79,99,7.56,overcast clouds
268,Mecca,SA,21.4267,39.8261,82.26,32,31,2.08,scattered clouds
269,Charcas,MX,23.1333,-101.1167,67.12,26,88,18.52,overcast clouds
270,Tombouctou,ML,20.0,-3.0,79.25,7,9,9.13,clear sky
271,Boksitogorsk,RU,59.474,33.8485,29.46,92,69,2.77,broken clouds
272,Youkounkoun,GN,12.5333,-13.1333,78.12,51,93,7.61,overcast clouds
273,Porto Novo,BJ,6.4965,2.6036,78.03,81,100,4.79,overcast clouds
274,Arraial Do Cabo,BR,-22.9661,-42.0278,76.35,88,76,18.23,broken clouds
275,Kisangani,CD,0.5167,25.2,70.48,98,45,2.06,scattered clouds
276,Daru,PG,-9.0763,143.2092,85.84,74,100,9.98,overcast clouds
277,Mahibadhoo,MV,3.7833,72.9667,84.88,73,90,14.9,moderate rain
278,Pirgos,GR,35.1167,25.7178,54.63,62,21,7.38,few clouds
279,Dubuque,US,42.4833,-90.8668,66.61,77,100,16.11,overcast clouds
280,Half Moon Bay,US,37.4636,-122.4286,49.78,72,0,23.02,clear sky
281,Tripoli,LY,32.8752,13.1875,59.72,71,62,22.5,broken clouds
282,Hami,CN,42.8,93.45,59.45,7,48,5.37,scattered clouds
283,Yakima,US,46.4665,-120.6678,36.84,93,100,4.61,overcast clouds
284,Lampazos De Naranjo,MX,27.0167,-100.5167,81.66,37,10,13.58,clear sky
285,Camacha,PT,33.0833,-16.3333,58.42,77,40,13.8,scattered clouds
286,Norman Wells,CA,65.282,-126.8329,13.41,91,14,5.84,few clouds
287,Beloha,MG,-25.1667,45.05,71.4,85,88,10.33,overcast clouds
288,Ciamis,ID,-7.3257,108.3534,87.19,56,45,3.96,scattered clouds
289,Kenai,US,60.5544,-151.2583,44.69,45,0,8.05,clear sky
290,Tukrah,LY,32.5341,20.5791,56.75,62,95,8.12,overcast clouds
291,Yining,CN,29.0361,114.5636,61.02,92,100,3.13,light rain
292,Faanui,PF,-16.4833,-151.75,82.38,71,16,14.09,few clouds
293,Noyabrsk,RU,63.1994,75.4507,33.96,94,71,13.35,broken clouds
294,Seoul,KR,37.5683,126.9778,56.64,67,100,9.24,overcast clouds
295,Yumen,CN,40.2833,97.2,50.4,14,100,14.03,overcast clouds
296,Heidelberg,ZA,-26.5048,28.3592,55.94,78,2,0.45,clear sky
297,Yerbogachen,RU,61.2767,108.0108,33.42,71,68,9.86,broken clouds
298,Leningradskiy,RU,69.3833,178.4167,2.05,85,57,13.65,broken clouds
299,Boyolangu,ID,-8.1181,111.8935,85.51,62,65,6.42,broken clouds
300,Yibin,CN,28.7667,104.6238,77.22,60,60,3.91,broken clouds
301,Batagay-Alyta,RU,67.8006,130.4114,8.76,79,100,3.29,overcast clouds
302,Sisimiut,GL,66.9395,-53.6735,20.46,80,21,5.28,few clouds
303,Alice Springs,AU,-23.7,133.8833,94.55,17,2,8.05,clear sky
304,Abaza,RU,52.655,90.0928,36.48,60,81,6.35,broken clouds
305,Viedma,AR,-40.8135,-62.9967,50.27,49,5,9.53,clear sky
306,Oranjestad,AW,12.524,-70.027,78.55,87,48,23.4,scattered clouds
307,Beringovskiy,RU,63.05,179.3167,27.46,97,100,13.89,snow
308,Ranong,TH,9.9658,98.6348,86.13,69,33,5.7,scattered clouds
309,Fujin,CN,47.26,132.0322,46.08,28,74,13.67,broken clouds
310,Linxia,CN,35.6003,103.2064,55.24,29,18,7.23,few clouds
311,Bairiki,KI,1.3292,172.9752,86.0,74,20,11.5,few clouds
312,Yulara,AU,-25.2406,130.9889,98.44,9,29,12.66,scattered clouds
313,Uvat,RU,59.1433,68.8953,41.07,76,99,6.89,overcast clouds
314,Kavaratti,IN,10.5669,72.642,85.21,69,100,5.3,very heavy rain
315,Sabalgarh,IN,26.25,77.4,97.84,10,4,9.35,clear sky
316,San Quintin,MX,30.4833,-115.95,57.78,59,0,22.5,clear sky
317,Myitkyina,MM,25.3833,97.4,95.56,31,31,1.74,scattered clouds
318,Kawalu,ID,-7.3817,108.2082,86.31,55,53,4.41,broken clouds
319,Bowen,AU,-20.0167,148.2333,83.64,57,21,19.69,few clouds
320,Claresholm,CA,50.0333,-113.5852,17.67,52,100,12.5,overcast clouds
321,Aklavik,CA,68.2191,-135.0107,20.91,93,79,3.2,broken clouds
322,Hualmay,PE,-11.0964,-77.6139,66.45,87,16,8.37,few clouds
323,Ronne,DK,55.1009,14.7066,42.71,65,20,11.5,few clouds
324,Ntoum,GA,0.3833,9.7833,75.76,94,100,2.1,overcast clouds
325,Ozernovskiy,RU,51.5,156.5167,31.06,82,68,11.16,broken clouds
326,Ho Chi Minh City,VN,10.75,106.6667,91.42,52,75,5.75,broken clouds
327,Shimoda,JP,34.6667,138.95,75.11,81,100,10.27,overcast clouds
328,Mohan,IN,26.7833,80.6833,85.95,24,69,7.61,broken clouds
329,Basoko,CD,1.2391,23.616,74.1,82,47,0.87,scattered clouds
330,Mangrol,IN,21.1167,70.1167,85.39,58,0,10.38,clear sky
331,Bitung,ID,1.4451,125.1824,90.45,72,100,1.57,overcast clouds
332,Saint-Pierre,RE,-21.3393,55.4781,78.91,75,20,20.71,few clouds
333,Sabya,SA,17.1495,42.6254,87.93,43,53,5.01,broken clouds
334,Nishihara,JP,26.1842,127.7558,78.08,73,40,13.8,scattered clouds
335,Riyadh,SA,24.6877,46.7219,77.14,21,87,10.58,overcast clouds
336,Kamaishi,JP,39.2667,141.8833,59.43,73,100,8.63,overcast clouds
337,Ondjiva,AO,-17.0667,15.7333,64.26,87,91,3.69,overcast clouds
338,Lata,PT,40.1629,-8.3327,45.7,98,25,2.1,scattered clouds
339,Poronaysk,RU,49.2167,143.1167,34.93,73,94,6.78,overcast clouds
340,Faya,SA,18.3851,42.4509,63.12,43,54,0.2,broken clouds
341,Bilibino,RU,68.0546,166.4372,18.68,61,100,2.8,overcast clouds
342,Maner,IN,25.65,84.8833,87.71,34,21,6.2,few clouds
343,Teguise,ES,29.0605,-13.564,59.22,77,0,5.75,clear sky
344,Le Mars,US,42.7942,-96.1656,53.44,66,100,25.32,overcast clouds
345,Talnakh,RU,69.4865,88.3972,33.21,99,100,4.74,light snow
346,Bay Roberts,CA,47.5999,-53.2648,36.34,83,100,7.0,overcast clouds
347,Mehamn,NO,71.0357,27.8492,30.15,69,75,6.91,light snow
348,Paso De Carrasco,UY,-34.8603,-56.0522,63.25,67,75,3.44,broken clouds
349,Sao Miguel Do Araguaia,BR,-13.275,-50.1628,75.18,71,13,2.57,few clouds
350,Abay,KZ,49.6311,72.8539,48.58,39,68,14.32,broken clouds
351,Umm Kaddadah,SD,13.6017,26.6876,75.07,15,62,10.4,broken clouds
352,Roma,US,43.2128,-75.4557,46.87,68,0,0.0,clear sky
353,Amnat Charoen,TH,15.9167,104.75,96.57,36,37,9.6,scattered clouds
354,Chara,RU,56.9064,118.2631,22.44,74,59,2.24,broken clouds
355,Ixtapa,MX,20.7,-105.2,75.22,83,0,4.0,clear sky
356,Guasdualito,VE,7.2424,-70.7324,78.51,62,22,3.18,few clouds
357,Sao Joao Da Barra,BR,-21.6403,-41.0511,76.06,87,16,8.55,few clouds
358,San Cristobal,VE,7.7669,-72.225,73.58,86,73,2.17,broken clouds
359,Yasnyy,RU,51.0333,59.8742,49.96,78,70,5.86,broken clouds
360,Burnie,AU,-41.0667,145.9167,68.07,54,2,4.27,clear sky
361,Houma,US,29.5958,-90.7195,73.4,89,0,12.66,clear sky
362,Mossendjo,CG,-2.9506,12.7261,69.76,100,100,1.97,light rain
363,Erdenet,MN,49.0333,104.0833,22.75,77,100,11.95,light snow
364,Aneho,TG,6.2333,1.6,77.59,78,100,4.79,overcast clouds
365,Bengkulu,ID,-3.8004,102.2655,84.38,66,21,4.85,few clouds
366,Kautokeino,NO,69.0125,23.0412,2.73,99,80,1.63,broken clouds
367,Talakan,RU,50.3167,130.3667,36.37,61,100,7.23,overcast clouds
368,Weinan,CN,34.5036,109.5089,68.74,39,44,7.36,scattered clouds
369,Torbay,CA,47.6666,-52.7314,35.58,86,100,20.71,light shower snow
370,Havelock,US,34.8791,-76.9013,66.97,88,33,3.0,scattered clouds
371,Kluang,MY,2.0251,103.3328,76.01,94,96,3.69,overcast clouds
372,Baykit,RU,61.67,96.37,32.59,78,100,8.9,overcast clouds
373,Ukiah,US,39.1502,-123.2078,44.49,71,0,6.91,clear sky
374,Antofagasta,CL,-23.65,-70.4,58.28,80,37,5.12,scattered clouds
375,Amazar,RU,53.858,120.875,37.72,32,100,7.56,overcast clouds
376,Byron Bay,AU,-28.65,153.6167,70.72,72,93,10.63,overcast clouds
377,Herat,AF,34.5,62.0,69.94,22,0,3.44,clear sky
378,Bahia Blanca,AR,-38.7196,-62.2724,49.77,65,1,8.52,clear sky
379,Tual,ID,-5.6667,132.75,83.32,72,93,3.47,overcast clouds
380,Miri,MY,4.4148,114.0089,85.75,65,82,6.67,broken clouds
381,Zhaotong,CN,27.3167,103.7167,62.69,61,87,1.41,overcast clouds
382,Tura,IN,25.5198,90.2201,83.88,59,15,4.29,few clouds
383,Ulladulla,AU,-35.35,150.4667,67.77,60,14,9.4,few clouds
384,Port Blair,IN,11.6667,92.75,89.64,62,40,4.61,scattered clouds
385,Nueva Loja,EC,0.0847,-76.8828,71.42,99,100,3.6,light rain
386,Soloneshnoye,RU,51.6544,84.3197,48.34,57,1,7.43,clear sky
387,Aktash,RU,50.3,87.7333,30.0,53,20,4.16,few clouds
388,Ahuimanu,US,21.4447,-157.8378,80.31,73,20,14.97,few clouds
389,Estelle,US,29.8458,-90.1067,73.99,81,75,8.05,broken clouds
390,Vardo,NO,70.3705,31.1107,28.35,78,62,14.29,broken clouds
391,Zvecka,RS,44.6389,20.1647,45.0,57,1,2.91,clear sky
392,Meulaboh,ID,4.1363,96.1285,84.63,69,97,0.89,overcast clouds
393,San Vicente,AR,-26.6167,-54.1333,62.42,100,98,1.12,overcast clouds
394,Zaysan,KZ,47.4667,84.8667,52.05,26,0,5.59,clear sky
395,Dingle,PH,10.9995,122.6711,78.1,81,100,2.08,overcast clouds
396,Celestun,MX,20.8667,-90.4,82.13,67,22,17.31,few clouds
397,Mastic Beach,US,40.7668,-72.8521,55.78,77,0,3.44,clear sky
398,Northam,GB,51.0333,-4.2167,52.61,96,91,11.74,overcast clouds
399,Eyl,SO,7.9803,49.8164,82.47,69,100,2.95,overcast clouds
400,Taoudenni,ML,22.6783,-3.9836,79.25,8,29,8.77,scattered clouds
401,Hailar,CN,49.2,119.7,42.62,23,49,7.96,scattered clouds
402,Kayanga,TZ,-1.5303,31.1511,56.86,91,49,3.04,scattered clouds
403,Chuy,UY,-33.6971,-53.4616,57.15,77,8,3.31,clear sky
404,Powell,US,40.1578,-83.0752,63.36,84,100,11.5,overcast clouds
405,Mankono,CI,8.0586,-6.1897,75.45,83,85,4.74,overcast clouds
406,Quchan,IR,37.106,58.5095,67.82,19,1,4.81,clear sky
407,Pella,RU,59.7775,30.8181,37.04,86,8,3.2,clear sky
408,Freiberg,DE,50.9167,13.3667,46.35,80,73,8.12,broken clouds
409,Nouadhibou,MR,20.931,-17.0347,62.58,82,0,20.71,clear sky
410,Lujiang,CN,31.2581,117.2817,53.38,95,100,12.33,overcast clouds
411,Pitkyaranta,RU,61.5734,31.4792,30.78,92,100,0.83,light snow
412,Roros,NO,62.5747,11.3842,22.84,94,100,5.75,overcast clouds
413,Nador,MA,35.174,-2.9287,57.45,88,40,6.91,light rain
414,Nelson Bay,AU,-32.7167,152.15,68.05,90,96,5.55,overcast clouds
415,Lebu,CL,-37.6167,-73.65,48.85,83,1,16.62,clear sky
416,Mogadishu,SO,2.0371,45.3438,82.72,77,82,8.41,broken clouds
417,Ampanihy,MG,-24.7,44.75,71.98,69,56,6.29,broken clouds
418,San Jose,US,37.3394,-121.895,49.28,62,20,9.22,few clouds
419,Wana,PK,32.2989,69.5725,72.23,30,10,4.88,clear sky
420,Puerto Leguizamo,CO,-0.1934,-74.7819,72.05,98,96,1.03,overcast clouds
421,Olafsvik,IS,64.8945,-23.7142,37.36,72,99,7.49,overcast clouds
422,Najran,SA,17.4924,44.1277,70.45,48,9,4.52,clear sky
423,Velka Bites,CZ,49.2884,16.2274,43.25,66,0,9.22,clear sky
424,Kruisfontein,ZA,-34.0033,24.7314,62.56,72,2,2.21,clear sky
425,George Town,MY,5.4112,100.3354,87.73,70,20,3.44,few clouds
426,Buta,CD,2.7858,24.73,69.35,97,21,0.27,few clouds
427,Dunedin,NZ,-45.8742,170.5036,57.79,56,29,1.01,scattered clouds
428,Abu Samrah,SY,35.3029,37.1841,47.95,64,0,8.57,clear sky
429,Kamina,CD,-8.7386,24.9906,62.73,97,90,3.2,overcast clouds
430,Pierre,US,44.3683,-100.351,27.86,78,100,35.01,overcast clouds
431,Shingu,JP,33.7333,135.9833,72.63,77,92,4.63,overcast clouds
432,Batemans Bay,AU,-35.7167,150.1833,69.1,56,0,6.87,clear sky
433,Severo-Kurilsk,RU,50.6789,156.125,31.48,85,100,8.72,overcast clouds
434,Gamba,GA,-2.65,10.0,76.75,90,58,3.53,light rain
435,Paamiut,GL,61.994,-49.6678,25.61,79,67,11.41,broken clouds
436,Kapustin Yar,RU,48.5831,45.7372,57.33,70,58,14.0,broken clouds
437,Moramanga,MG,-18.9333,48.2,63.48,97,100,3.62,overcast clouds
438,Dezful,IR,32.3811,48.4058,76.86,22,60,2.55,broken clouds
439,Fairbanks,US,64.8378,-147.7164,40.96,44,0,5.75,clear sky
440,Amberieu-En-Bugey,FR,45.9589,5.3432,53.58,72,99,3.58,overcast clouds
441,Tucurui,BR,-3.7661,-49.6725,73.54,97,100,3.13,light rain
442,Yabrud,SY,33.9674,36.6574,41.7,62,0,1.03,clear sky
443,Ponta Delgada,PT,37.7333,-25.6667,59.72,94,75,11.5,broken clouds
444,Kokkola,FI,63.8385,23.1307,29.93,94,0,2.3,clear sky
445,Nyrob,RU,60.733,56.7202,35.2,100,100,2.91,overcast clouds
446,Port Hardy,CA,50.6996,-127.4199,42.8,75,75,11.5,broken clouds
447,Plettenberg Bay,ZA,-34.0527,23.3716,65.28,68,59,6.02,broken clouds
448,Dharchula,IN,29.85,80.5333,83.89,20,3,5.91,clear sky
449,Sistranda,NO,63.7256,8.834,33.76,74,100,5.48,overcast clouds
450,Abnub,EG,27.2696,31.1511,52.02,63,48,13.42,scattered clouds
451,Goulburn,AU,-34.75,149.7167,61.61,61,41,9.13,scattered clouds
452,Kasane,BW,-17.8167,25.15,62.96,90,82,1.39,broken clouds
453,Vilyuysk,RU,63.7553,121.6247,26.06,84,100,4.61,overcast clouds
454,Olinda,BR,-8.0089,-34.8553,78.53,83,20,0.0,few clouds
455,Araouane,ML,18.9048,-3.5265,80.06,7,39,9.28,scattered clouds
456,Jaciara,BR,-15.9653,-54.9683,72.7,78,5,1.86,clear sky
457,Bandarbeyla,SO,9.4942,50.8122,80.29,80,8,3.87,clear sky
458,Hamilton,US,39.1834,-84.5333,66.24,87,0,11.5,clear sky
459,Lamu,KE,-2.2717,40.902,84.42,76,100,10.89,light rain
460,Wad Rawah,SD,15.1603,33.1397,85.33,15,16,8.55,few clouds
461,Castro,BR,-24.7911,-50.0119,62.29,98,95,3.04,overcast clouds
462,Monrovia,LR,6.3005,-10.7969,71.37,86,100,6.17,overcast clouds
463,Biak,ID,-0.9131,122.8766,85.05,59,90,2.71,overcast clouds
464,Ust-Ishim,RU,57.6935,71.1665,39.79,72,100,7.74,overcast clouds
465,Naberera,TZ,-4.2,36.9333,63.05,85,100,6.29,overcast clouds
466,Genhe,CN,50.7833,121.5167,37.33,37,89,6.38,overcast clouds
467,Chala,TZ,-7.5833,31.2667,56.19,96,94,3.58,overcast clouds
468,Zinder,NE,13.8072,8.9881,75.52,46,11,8.88,few clouds
469,Sandnessjoen,NO,66.0217,12.6316,37.51,84,75,3.0,light rain
470,Stulovo,RU,58.7225,50.1439,37.44,93,78,5.57,broken clouds
471,Moron,AR,-34.6534,-58.6198,58.75,62,3,6.55,clear sky
472,Salekhard,RU,66.53,66.6019,34.54,100,100,6.82,overcast clouds
473,Mujiayingzi,CN,42.1167,118.7833,52.12,21,100,18.23,overcast clouds
474,Inza,RU,53.8533,46.3586,47.07,88,100,6.82,overcast clouds
475,Munster,DE,51.9624,7.6257,58.32,82,0,1.14,clear sky
476,Victor Harbor,AU,-35.5667,138.6167,78.67,61,0,9.24,clear sky
477,Chilpancingo,MX,17.55,-99.5,67.14,82,81,4.45,broken clouds
478,Dandong,CN,40.1292,124.3947,61.81,21,100,13.24,overcast clouds
479,Bereda,ES,43.2686,-7.5406,49.57,100,99,3.11,overcast clouds
480,Belfast,GB,54.5833,-5.9333,48.38,93,100,6.91,haze
481,Santa Isabel,BR,-23.3156,-46.2214,72.7,98,99,3.2,overcast clouds
482,Kununurra,AU,-15.7667,128.7333,89.58,58,76,4.61,broken clouds
483,Olga,RU,43.7444,135.2892,45.27,63,100,6.29,overcast clouds
484,Kumbo,CM,6.2,10.6667,61.21,84,100,0.85,overcast clouds
485,Novyy Urengoy,RU,66.0833,76.6333,34.36,100,100,11.27,overcast clouds
486,Lagoa,PT,39.05,-27.9833,60.66,83,100,17.96,overcast clouds
487,Ola,RU,59.5833,151.2833,32.14,51,74,6.15,broken clouds
488,Nuuk,GL,64.1835,-51.7216,25.41,100,75,4.61,broken clouds
489,Tarbes,FR,43.25,0.1667,54.07,76,100,6.91,light rain
490,Tromso,NO,69.6496,18.957,30.22,80,75,2.3,broken clouds
491,Tupi Paulista,BR,-21.3811,-51.5706,73.87,75,45,3.85,scattered clouds
492,Ca Mau,VN,9.1769,105.15,91.06,52,38,4.79,scattered clouds
493,Khani,GE,41.9563,42.9566,31.57,98,100,3.02,light snow
494,Princeton,US,25.5384,-80.4089,76.01,71,20,12.66,few clouds
495,Christchurch,NZ,-43.5333,172.6333,61.95,64,40,10.36,scattered clouds
496,Arawa,PG,-6.2132,155.5367,85.48,69,100,5.1,light rain
497,Itacoatiara,BR,-3.1431,-58.4442,73.9,97,98,1.88,overcast clouds
498,Havre,FR,49.5833,0.3333,46.8,100,99,2.3,fog
499,North Bend,US,43.4065,-124.2243,42.71,93,100,11.5,overcast clouds
500,Klaksvik,FO,62.2266,-6.589,43.72,87,96,18.79,overcast clouds
501,Tigil,RU,57.8,158.6667,24.24,91,100,8.1,light snow
502,Lodeynoye Pole,RU,60.726,33.5531,30.27,98,76,1.14,broken clouds
503,Nuevo Progreso,MX,23.1667,-97.95,77.54,70,32,5.99,scattered clouds
504,Korla,CN,41.7597,86.1469,63.81,16,99,8.97,overcast clouds
505,Karratha,AU,-20.7377,116.8463,92.16,24,1,8.48,clear sky
506,Ewa Beach,US,21.3156,-158.0072,80.55,59,75,15.01,broken clouds
507,Panguna,PG,-6.3164,155.4848,78.39,74,100,2.53,light rain
508,Ahipara,NZ,-35.1667,173.1667,67.01,70,100,13.18,overcast clouds
509,Portland,US,45.5234,-122.6762,39.78,92,100,9.22,overcast clouds
510,Lodwar,KE,3.1191,35.5973,83.1,52,78,8.57,broken clouds
511,Springbok,ZA,-29.6643,17.8865,58.98,50,9,2.68,clear sky
512,Garowe,SO,8.4054,48.4845,75.42,81,13,5.23,few clouds
513,Siteki,SZ,-26.45,31.95,59.92,95,17,4.41,few clouds
514,Muskegon,US,43.3,-86.1334,64.26,62,100,11.5,overcast clouds
515,Ponte Nova,BR,-20.4164,-42.9086,69.28,93,91,0.58,overcast clouds
516,Narasannapeta,IN,18.4167,84.05,91.0,52,33,13.51,scattered clouds
517,Nalut,LY,30.3333,10.85,63.57,25,90,19.01,overcast clouds
518,Fare,PF,-16.7,-151.0167,82.33,72,4,13.76,clear sky
519,Afyonkarahisar,TR,38.75,30.6667,31.14,81,7,3.8,clear sky
520,Iralaya,HN,15.0,-83.2333,78.4,81,22,12.1,few clouds
521,Humberto De Campos,BR,-2.5983,-43.4611,75.65,95,97,4.23,overcast clouds
522,Bathsheba,BB,13.2167,-59.5167,79.41,78,40,16.11,scattered clouds
523,Peniche,PT,39.3558,-9.3811,56.1,92,9,13.2,clear sky
524,San Fernando,PH,15.0286,120.6898,91.08,48,77,5.48,broken clouds
525,Rincon,US,32.296,-81.2354,68.86,88,20,8.05,few clouds
526,Duku,NG,11.2361,4.9073,79.74,65,98,5.93,overcast clouds
527,Methven,NZ,-43.6333,171.65,54.01,86,94,1.99,overcast clouds
528,Porgera,PG,-5.4667,143.2,52.5,80,77,2.21,broken clouds
529,Kungurtug,RU,50.5994,97.5228,24.71,63,100,4.47,light snow
530,Tyret Pervaya,RU,53.6703,102.3106,34.74,42,100,7.54,overcast clouds
531,Puerto Rico,AR,-26.796,-55.024,62.56,99,21,1.66,few clouds
532,Aitape,PG,-3.1374,142.3475,86.86,61,12,6.62,light rain
533,Safaga,EG,26.7292,33.9365,64.74,52,0,18.75,clear sky
534,Korenovsk,RU,45.4686,39.4519,43.27,76,100,18.63,overcast clouds
535,Vila Franca Do Campo,PT,37.7167,-25.4333,59.41,90,100,11.68,overcast clouds
536,Nabire,ID,-3.3667,135.4833,85.84,70,49,5.97,scattered clouds
537,Avera,US,33.194,-82.5271,65.71,74,100,6.93,overcast clouds
538,Bongued,PH,7.1167,124.4,88.52,58,78,8.03,broken clouds
539,Tiznit,MA,29.5833,-9.5,53.46,88,91,7.4,overcast clouds
540,Pacific Grove,US,36.6177,-121.9166,49.68,77,3,21.0,clear sky
541,Nyborg,DK,55.3127,10.7896,43.93,80,100,18.79,light rain
542,Arlit,NE,18.7369,7.3853,81.14,9,6,4.72,clear sky
543,Keti Bandar,PK,24.1447,67.4497,82.72,69,0,16.98,clear sky
544,Ryotsu,JP,38.0833,138.4333,55.53,91,100,12.55,overcast clouds
545,Oranjemund,,-28.55,16.4333,59.2,88,5,4.12,clear sky
546,Alugan,PH,12.2188,125.4808,80.96,81,100,10.54,light rain
547,Hervey Bay,AU,-25.2986,152.8535,77.02,72,55,5.99,broken clouds
548,Turtas,RU,58.9417,69.1325,41.49,75,98,7.25,overcast clouds
549,Tashla,RU,51.7716,52.7427,46.33,77,19,12.73,few clouds
550,Iracoubo,GF,5.4802,-53.2011,77.4,86,77,10.92,broken clouds
551,Honiara,SB,-9.4333,159.95,85.91,65,17,5.61,few clouds
552,Yatou,CN,37.15,122.3833,52.3,52,100,16.31,overcast clouds
553,High Level,CA,58.5169,-117.136,14.11,57,0,5.75,clear sky
554,Iskateley,RU,67.6803,53.1512,26.06,92,95,6.71,overcast clouds
555,Bolshaya Dzhalga,RU,45.9695,42.6966,43.38,79,98,22.77,overcast clouds
556,Sao Jose Da Coroa Grande,BR,-8.8978,-35.1478,77.16,85,60,3.58,broken clouds
557,Tjome,NO,59.1109,10.3933,41.43,73,100,5.75,light rain
558,Ereymentau,KZ,51.6199,73.1033,45.66,49,100,17.81,overcast clouds
559,Yarada,IN,17.65,83.2667,91.72,55,20,6.91,few clouds
560,Sioux Lookout,CA,50.1001,-91.917,33.87,51,100,9.22,overcast clouds
561,Zaria,NG,11.1113,7.7227,72.43,79,86,9.01,overcast clouds
562,Pasni,PK,25.2631,63.471,80.6,73,0,5.97,clear sky
563,Sur,OM,22.5667,59.5289,91.74,25,0,4.54,clear sky
564,Mosetse,BW,-20.75,26.65,66.81,62,45,7.34,scattered clouds
565,Bethanien,,-26.502,17.1583,62.31,41,1,1.66,clear sky
566,Maraa,BR,-1.8333,-65.3667,74.59,96,100,2.64,overcast clouds
567,Atar,MR,20.5169,-13.0499,73.49,20,28,11.03,scattered clouds
568,Lucapa,AO,-8.4192,20.7447,63.88,97,52,3.31,broken clouds
569,Carangola,BR,-20.7331,-42.0294,68.95,96,98,2.98,overcast clouds
570,Mayor Pablo Lagerenza,PY,-19.9309,-60.7718,72.48,98,72,4.76,broken clouds
571,Oeiras,BR,-7.0253,-42.1311,72.25,91,33,3.0,scattered clouds
572,Fayaoue,NC,-20.65,166.5333,78.57,72,38,3.18,scattered clouds
573,Nortelandia,BR,-14.4547,-56.8028,76.78,77,60,1.52,broken clouds
574,Husavik,IS,66.0449,-17.3389,27.37,86,79,10.07,broken clouds
575,Vestmannaeyjar,IS,63.4427,-20.2734,40.82,70,96,13.94,overcast clouds
576,Meadow Lake,US,34.8014,-106.5436,45.48,21,21,22.57,few clouds
577,Coracora,PE,-15.0333,-73.7833,49.87,56,1,5.79,clear sky
578,Coronado,US,32.6859,-117.1831,59.95,70,0,13.0,clear sky
579,San Carlos De Bariloche,AR,-41.1456,-71.3082,44.35,61,0,19.57,clear sky
580,Rapar,IN,23.5667,70.6333,87.8,36,0,14.14,clear sky
581,Siverek,TR,37.755,39.3167,39.45,66,0,4.47,clear sky
582,Chiredzi,ZW,-21.05,31.6667,67.15,89,8,2.75,clear sky
583,Pechenga,RU,69.5259,31.1703,14.45,93,24,5.12,few clouds
584,Yenagoa,NG,4.9247,6.2642,75.38,96,100,3.96,moderate rain
585,Nekhayevskiy,RU,50.4106,41.7561,51.69,81,91,13.82,light rain
586,Okhotsk,RU,59.3833,143.3,28.04,65,40,12.17,scattered clouds
587,Isiro,CD,2.7739,27.616,65.71,94,71,0.92,light rain
588,Rapid Valley,US,44.0625,-103.1463,20.37,56,36,24.0,scattered clouds
589,Peski,RU,55.2163,38.7626,47.17,94,100,6.38,overcast clouds
590,Srednekolymsk,RU,67.45,153.6833,14.79,74,6,5.35,clear sky
591,Kpandae,GH,8.4689,-0.0113,79.18,66,100,5.7,overcast clouds
592,General Pico,AR,-35.6566,-63.7568,47.68,60,0,6.42,clear sky
593,Eydhafushi,MV,5.1033,73.0708,84.51,71,88,11.63,overcast clouds
594,Svetlyy,RU,54.675,20.1347,28.45,79,38,6.4,scattered clouds
595,Boa Vista,BR,2.8197,-60.6733,78.78,73,40,6.91,scattered clouds
596,Selma,US,36.5708,-119.6121,55.45,38,0,10.36,clear sky
597,Southbridge,US,42.0751,-72.0334,55.51,57,77,4.14,broken clouds
598,Glendive,US,47.1053,-104.7125,19.69,92,100,20.71,mist
599,Vao,NC,-22.6667,167.4833,75.63,72,5,7.99,clear sky
600,Goderich,CA,43.7501,-81.7165,52.12,62,100,9.22,overcast clouds
601,Jalu,LY,29.0331,21.5482,60.71,32,74,10.83,broken clouds
602,Qobustan,AZ,40.0824,49.412,53.89,58,0,2.59,clear sky
603,Mildura,AU,-34.2,142.15,74.07,31,0,6.91,clear sky
604,Hokitika,NZ,-42.7167,170.9667,62.96,58,0,10.13,clear sky
605,Salym,RU,60.0625,71.4789,39.45,80,99,4.97,overcast clouds
606,Kahului,US,20.8947,-156.47,80.62,60,20,21.85,few clouds
607,Kodinsk,RU,58.6881,99.1844,38.32,63,56,2.39,broken clouds
608,Ginir,ET,7.1333,40.7,63.86,63,88,2.46,overcast clouds
609,Poum,NC,-20.2333,164.0167,78.8,65,1,15.46,clear sky
610,Haines Junction,CA,60.7522,-137.5108,26.55,33,5,1.14,clear sky
611,Baie-Comeau,CA,49.2168,-68.1489,33.48,100,100,5.75,mist
612,Vila Praia De Ancora,PT,41.811,-8.8526,55.11,90,78,2.06,broken clouds
613,College,US,64.8569,-147.8028,40.95,45,20,5.75,few clouds
614,Broken Hill,AU,-31.95,141.4333,76.03,25,0,10.36,clear sky
615,Oda,JP,35.1833,132.5,57.97,93,100,9.33,overcast clouds
616,Padang,ID,-0.9492,100.3543,87.85,63,33,5.55,scattered clouds
617,Lima,PE,-12.0432,-77.0282,62.85,82,0,12.66,clear sky
618,Lichinga,MZ,-13.3128,35.2406,62.69,100,75,10.36,light intensity shower rain
619,Multan,PK,30.1956,71.4753,85.89,32,20,4.61,haze
620,Nioro,GM,13.35,-15.75,73.27,52,94,6.4,overcast clouds
621,Umbuzeiro,BR,-7.6956,-35.6636,66.2,94,88,1.41,overcast clouds
622,Grindavik,IS,63.8424,-22.4338,37.35,87,0,2.3,clear sky
623,Katherine,AU,-14.4667,132.2667,95.32,43,40,10.36,scattered clouds
624,Sitka,US,57.0531,-135.33,40.89,26,0,10.36,clear sky
625,Lieksa,FI,63.3167,30.0167,29.79,90,100,2.1,overcast clouds
626,Waitati,NZ,-45.75,170.5667,57.79,56,50,5.32,scattered clouds
627,Tatawin,TN,32.9297,10.4518,55.71,64,100,9.01,overcast clouds
628,Marienburg,PL,54.0359,19.0266,40.57,69,17,5.53,few clouds
629,Wattegama,LK,6.7989,81.4808,82.94,71,99,4.7,overcast clouds
630,Akdepe,TM,42.0551,59.3788,68.09,27,22,16.55,few clouds
631,Santa Cruz De La Palma,ES,28.6835,-17.7642,62.74,77,0,8.05,clear sky
632,Prince Rupert,CA,54.3161,-130.3201,38.89,28,0,12.66,clear sky
633,Tanete,ID,-3.9443,119.7848,91.69,50,90,5.01,overcast clouds
634,Shirokiy,RU,49.758,129.523,39.56,40,50,10.16,scattered clouds
635,Cabedelo,BR,-6.9811,-34.8339,75.87,79,87,7.02,overcast clouds
636,Nagato,JP,34.3833,131.2,74.19,87,100,11.86,overcast clouds
637,Serebryansk,KZ,49.6925,83.2892,40.1,83,6,4.03,clear sky
638,Aksu,CN,41.1231,80.2644,69.31,20,77,6.51,broken clouds
639,Igboho,NG,8.8333,3.75,73.09,78,100,4.85,overcast clouds
640,Kirksville,US,40.1948,-92.5833,71.06,71,0,24.16,clear sky
641,Doha,QA,25.2867,51.5333,85.98,28,11,8.05,few clouds
642,Ransang,PH,8.9603,117.5828,83.1,74,87,8.99,overcast clouds
643,Opunake,NZ,-39.4556,173.8583,61.84,72,100,30.96,overcast clouds
644,Brunswick,US,41.2381,-81.8418,61.3,77,40,12.66,scattered clouds
645,Paraiso,CR,9.8383,-83.8656,67.06,96,73,3.51,broken clouds
646,Laguna,US,38.421,-121.4238,54.45,58,0,11.5,clear sky
647,Edd,ER,13.9297,41.6925,89.44,32,1,10.22,clear sky
648,Constitucion,CL,-35.3333,-72.4167,54.01,48,0,6.89,clear sky
649,Stettler,CA,52.3168,-112.7186,20.7,63,100,12.66,overcast clouds
650,Ciudad Bolivar,VE,8.1222,-63.5497,79.75,64,37,14.72,scattered clouds
651,Orichi,RU,58.4036,49.0572,38.73,92,99,7.65,overcast clouds
652,Shieli,KZ,44.1667,66.75,68.18,32,0,10.49,clear sky
653,Hammerfest,NO,70.6634,23.6821,30.65,80,75,2.3,broken clouds
654,Lao Cai,VN,22.4833,103.95,89.33,52,33,3.74,scattered clouds
655,Rafsanjan,IR,30.4067,55.9939,72.57,9,93,7.49,overcast clouds
656,Verkhnyaya Inta,RU,65.9811,60.3094,32.7,100,100,2.55,snow
657,Methoni,GR,36.8197,21.7049,52.21,75,62,4.72,broken clouds
658,Lensk,RU,60.7253,114.9278,33.53,73,96,8.46,overcast clouds
659,Bonavista,CA,48.6499,-53.1147,31.5,96,100,25.48,light snow
660,Anjar,IN,23.1333,70.0167,89.13,33,0,13.04,clear sky
661,Saint-Francois,FR,46.4154,3.9054,42.42,93,0,0.0,clear sky
662,Neiafu,TO,-18.65,-173.9833,79.48,89,75,5.75,broken clouds
663,Sinjar,IQ,36.3209,41.8754,52.21,51,0,5.46,clear sky
664,Pauini,BR,-7.7136,-66.9764,72.46,98,97,1.97,overcast clouds
665,Rosario,AR,-32.9468,-60.6393,56.95,75,0,2.3,clear sky
666,Yangambi,CD,0.8102,24.4336,70.27,96,73,1.99,light rain
667,Altamira,BR,-3.2033,-52.2064,72.07,99,83,2.39,broken clouds
668,Kolobovo,RU,56.702,41.3417,48.51,86,100,1.63,overcast clouds
669,San Andres,CO,12.5847,-81.7006,80.62,78,40,11.5,scattered clouds
670,Samdari,IN,25.8167,72.5833,85.3,41,0,9.8,clear sky
671,Menongue,AO,-14.6585,17.691,60.69,95,96,2.89,overcast clouds
672,Chunoyar,RU,57.4467,97.3217,39.38,58,24,2.06,few clouds
673,Kuusamo,FI,65.9667,29.1833,26.64,93,0,2.3,clear sky
674,Palma,ES,39.5694,2.6502,60.21,85,40,4.0,scattered clouds
675,Inuvik,CA,68.3499,-133.7218,29.26,50,75,6.91,broken clouds
676,Pisco,PE,-13.7,-76.2167,65.01,82,2,2.3,clear sky
677,Fatehpur,IN,25.9333,80.8,98.71,21,16,5.21,few clouds
678,Elk Point,US,42.6833,-96.6836,51.64,69,56,23.13,broken clouds
679,Addis Abeba,ET,9.025,38.7469,57.96,57,80,3.27,broken clouds
680,Baihar,IN,22.1,80.55,95.7,24,85,7.87,overcast clouds
681,Parabel,RU,58.6978,81.4825,35.22,97,100,4.21,overcast clouds
682,Vila Velha,BR,-20.3297,-40.2925,76.95,93,20,2.3,few clouds
683,Baruun-Urt,MN,46.6806,113.2792,39.61,19,100,20.87,overcast clouds
684,Micheweni,TZ,-4.9667,39.8333,79.99,81,99,9.75,light rain
685,Bedele,ET,8.456,36.353,57.6,93,100,2.84,light rain
686,Bandar-E Lengeh,IR,26.5579,54.8807,82.51,78,10,9.22,clear sky
687,Willowmore,ZA,-33.2926,23.4895,61.12,64,29,1.79,scattered clouds
688,Igarka,RU,67.4667,86.5833,33.82,100,100,11.5,light snow
689,Jiaozhou,CN,36.2839,120.0033,60.76,24,100,11.45,overcast clouds
690,Mesto Albrechtice,CZ,50.1629,17.5748,38.82,64,7,4.23,clear sky
691,Verkhnyaya Salda,RU,58.0456,60.5533,41.52,71,76,5.39,broken clouds
692,Asau,RO,46.4333,26.4,38.32,83,17,5.41,few clouds
